code	address	place	lat	lon
1.0	舞鶴市字北吸247-26	マリンボウル斜め前防火水槽	35.4736830555253	135.381170332524
2.0	舞鶴市字北吸500	三宅公園	35.4724761044995	135.379055768143
3.0	舞鶴市字浜2011	赤れんが博物館	35.4761041287883	135.387560027369
4.0	舞鶴市字北吸1045-1	市上下水道部分室	35.4742372616128	135.386821778332
5.0	舞鶴市字北吸1045-13	東門公園（国道側）	35.4730235376542	135.387220370668
6.0	舞鶴市字浜2006-67	寺川駐車場フェンス	35.4755380138812	135.389392743311
7.0	舞鶴市字北吸1006-5		35.46755616222	135.379080961729
8.0	舞鶴市字北吸1045-13	東門公園（歩道側）	35.4729527660671	135.386818787926
9.0	舞鶴市字浜2022	うみべのもり保育所	35.4776410909134	135.389101328468
10.0	舞鶴市字浜671	得月寺	35.4725597286909	135.390947724147
11.0	舞鶴市字浜1054	ＮＴＴ北京都支店舞鶴別館	35.4693849791979	135.392303357697
12.0	舞鶴市桃山町2-16	共済病院駐車場	35.4686913648114	135.391922511217
13.0	舞鶴市桃山町6-6		35.4652305140095	135.390657570632
14.0	舞鶴市浜町4-7	ＪＲ東舞鶴駅北口ロータリー	35.4688084414121	135.394957996962
15.0	舞鶴市字浜1054	西浜南ちびっこ広場	35.469426684261	135.39297943248
16.0	舞鶴市字浜15-3	ＹＭＣＡ国際福祉専門学校駐車場	35.4756199431731	135.391591034353
17.0	舞鶴市字浜1547-15	潮路通三条角緑地	35.4764727241567	135.39187290207
18.0	舞鶴市字浜1575-2	市営七条駐車場	35.4770822309258	135.394255762215
19.0	舞鶴市字溝尻144-1	東ポンプ場	35.4785067381901	135.398699164964
20.0	舞鶴市字溝尻150-29	シルバー人材センター駐車所フェンス（富士通側）	35.4768620463751	135.39813005801
21.0	舞鶴市字溝尻150-11	舞鶴市シルバー人材センター前	35.476039259309	135.399117830826
22.0	舞鶴市字浜500		35.4745206061912	135.399575363616
23.0	舞鶴市字浜840	白糸中学校（北側フェンス）	35.4736974777873	135.398514855743
24.0	舞鶴市字浜401-25	八島公園北側広場	35.4747999661756	135.394609210505
25.0	舞鶴市字浜221	昭光保育園（富士通側）	35.4754283861409	135.392766781351
26.0	舞鶴市浜町3-2	市営東舞鶴駅駐車場	35.4702432025544	135.396298687296
27.0	舞鶴市字浜937		35.4717975266399	135.395747255261
28.0	舞鶴市字浜880	白糸中学校（川側フェンス）	35.4730640888591	135.397922412866
29.0	舞鶴市溝尻1200‐4	新舞鶴小学校	35.4728801423497	135.399483233276
30.0	舞鶴市矢之助町16-7		35.4731843466238	135.40114032895
31.0	舞鶴市矢之助町33-17向かい	イエロー不動産駐車場	35.4719386562954	135.402663597354
32.0	舞鶴市矢之助町32-1		35.4715553795661	135.401945052511
33.0	舞鶴市溝尻中町8-10付近	駐車場フェンス	35.4704846445134	135.403384721578
34.0	舞鶴市字溝尻1179-16		35.4690349174555	135.403367295425
35.0	舞鶴市溝尻中町17-1	溝尻公園	35.4706166274926	135.406125670892
36.0	舞鶴市溝尻中町24-8	佐引田橋東詰駐車場	35.4682391883689	135.405389440385
37.0	舞鶴市溝尻町3-6	梅ケ谷口バス停駐車場	35.4681989952006	135.406336096313
38.0	舞鶴市字溝尻12-9	清光寺墓地	35.4702821821851	135.410034365278
39.0	舞鶴市字溝尻2-10		35.4689099832215	135.409425097406
40.0	舞鶴市溝尻町36-5	メディセオ駐車場	35.4648773010092	135.411080690869
41.0	舞鶴市字溝尻42		35.4753739191231	135.401308529157
42.0	舞鶴市字市場19-4横	第三海岸通駐車場	35.4778656041572	135.40277723668
43.0	舞鶴市字市場211-7	市場市民交流センター	35.4761873032979	135.409008640366
44.0	舞鶴市字溝尻23	松島公園西側	35.4770976990883	135.401465148557
45.0	舞鶴市字市場726-1	土木課竜宮管理地	35.4787535095933	135.400785429638
46.0	舞鶴市字泉源寺175-2	教育隊前	35.4857055592226	135.400026887903
47.0	舞鶴市字市場689-12	竜宮ちびっこ広場	35.4786244246824	135.402091652649
48.0	舞鶴市愛宕浜町1-5	竜宮公園	35.4785888289285	135.404375712857
49.0	舞鶴市愛宕中町9-2付近	愛宕中町市道フェンス	35.4813827233583	135.407614921532
50.0	舞鶴市愛宕中町13-8		35.4821856915911	135.407409908389
51.0	舞鶴市愛宕上町11-3	高屋公民館横防火水槽	35.4836457262446	135.407678643147
52.0	舞鶴市愛宕上町6-4		35.4835275519834	135.408643383993
53.0	舞鶴市字泉源寺1205		35.4841581387134	135.410606816376
54.0	舞鶴市字泉源寺1189	防火水槽	35.483114157199	135.411254796516
55.0	舞鶴市北浜町9-1付近	レストランまこと駐車場	35.4678927337735	135.397529042388
56.0	舞鶴市浜町3-2	市営東舞鶴駅駐車場（七条通側）	35.4705202901794	135.396859558423
57.0	舞鶴市北浜町20-7	北浜市民交流センター	35.4673632573392	135.399267583645
58.0	舞鶴市北浜町13-1	旧日本通運株式会社フェンス	35.466083119458	135.397331333298
59.0	舞鶴市南浜町21-5	ＪＲ東舞鶴駅南口駅前広場	35.4689139539772	135.395845160487
60.0	舞鶴市北浜町14-5	旧日本通運株式会社フェンス	35.4664944849371	135.396708641311
61.0	舞鶴市行永東町6-3	北浜緑地フェンス	35.4657914616148	135.398590790015
62.0	舞鶴市倉梯町13-6	松代歯科医院	35.4638405406255	135.397374532286
63.0	舞鶴市森町24-18	東舞鶴駅西公園	35.4668418904947	135.393132570448
64.0	舞鶴市南浜町27-5東側向い	らぽーる東口駐車場フェンス	35.4665283493918	135.396004168922
65.0	舞鶴市森町24-19	東舞鶴駅西公園	35.4674929109235	135.393181732487
66.0	舞鶴市森本町36-10		35.4645307360698	135.392169443389
67.0	舞鶴市倉梯町27-13付近	倉梯小学校（北側）	35.4627934193304	135.396808206213
68.0	舞鶴市七条中町5-2	倉梯小学校（府道側）	35.4617434469506	135.395807208259
69.0	舞鶴市森本町25-6		35.4618925545976	135.393202040804
70.0	舞鶴市森本町28-1		35.4623790120288	135.391235216933
71.0	舞鶴市字森301-13	三本木ちびっこ広場	35.46157114523	135.384640826922
72.0	舞鶴市字森493	丹後ガス株式会社	35.4614743242451	135.388865400895
73.0	舞鶴市丸山口町27-9	丸山口交差点北西角	35.4613753690086	135.391874640675
74.0	舞鶴市字森1515	清掃事務所フェンス	35.4642138763965	135.377080284778
75.0	舞鶴市字森1005-3	南公民館	35.4605521995319	135.395138092232
76.0	舞鶴市字森305-10	ひばり幼稚園駐車場	35.4570562451821	135.391711848131
77.0	舞鶴市字行永763-1	倉梯第二小学校	35.4573126438092	135.393536418036
78.0	舞鶴市字行永1396	東舞鶴公園	35.4549026964296	135.391045594208
79.0	舞鶴市丸山口町49	丸山公園	35.4589356509902	135.390705923017
80.0	舞鶴市八反田北町65-1	東舞鶴公園横	35.4544040011432	135.39314876671
81.0	舞鶴市八反田南町1	JA京都青葉支店	35.4531648983823	135.397115722082
82.0	舞鶴市字行永721	倉梯第二小学校	35.4556824227621	135.394711704881
83.0	舞鶴市字森225	株式会社西村住建商事白鳥営業所	35.4601507278982	135.382771395986
84.0	舞鶴市字森250-10	白鳥団地１０号棟フェンス	35.4589015671136	135.382742877749
85.0	舞鶴市字森250-3	白鳥団地３号棟フェンス	35.4589804326963	135.383360913627
86.0	舞鶴市字森250-2	白鳥団地第２駐車場フェンス	35.4592452390348	135.383825552454
87.0	舞鶴市字森257-8	イエロー不動産物件	35.4572452309333	135.383847076649
88.0	舞鶴市字行永2180-5	片山南団地	35.4662576512253	135.400815666551
89.0	舞鶴市行永桜通り5	念法寺前	35.4654636947533	135.403537186917
90.0	舞鶴市字行永2410	舞鶴医療センター前	35.4637849133202	135.401479665714
91.0	舞鶴市行永東町27-10	桜ケ坪公園	35.4627214596457	135.398877523611
92.0	舞鶴市字行永1810	青葉中学校	35.4611463052796	135.399655661345
93.0	舞鶴市字行永2540-22	大迫公園	35.4613516851826	135.403678304965
94.0	舞鶴市字行永2840-13		35.4613743273727	135.405778225843
95.0	舞鶴市字行永2753-3付近	大宮団地ちびっこ広場	35.46062437301	135.406663991847
96.0	舞鶴市字行永2510-17	舞鶴支援学校フェンス	35.4619511850023	135.403704677359
97.0	舞鶴市金屋町10-2		35.4576976663111	135.399633844907
98.0	舞鶴市字行永457	観音堂	35.4584990768897	135.396953057056
99.0	舞鶴市字行永2007-1	防火水槽	35.4586030039805	135.401938913919
100.0	舞鶴市字行永1684		35.4570375137903	135.399191084191
101.0	舞鶴市字行永1600-9付近	芥子谷団地1号棟フェンス（東側）	35.4539761967059	135.402088177547
102.0	舞鶴市字行永1600-168	芥子谷団地第2駐車場フェンス	35.4543562667475	135.400930844038
103.0	舞鶴市堂奥259	防火水槽	35.4642545092947	135.418627126839
104.0	舞鶴市字堂奥1356-1	西村治宅前防火水槽	35.4634402346802	135.429087187778
105.0	舞鶴市字多門院711	防火水槽	35.4612162909901	135.439196323615
106.0	舞鶴市字与保呂1218-1	与保呂神社防火水槽	35.444294711283	135.430849794197
107.0	舞鶴市字与保呂245-1	与保呂集会所	35.446450508742	135.426240376942
108.0	舞鶴市字与保呂532	与保呂小学校	35.4487900297819	135.417122370718
109.0	舞鶴市字木ノ下326	木ノ下集会所横	35.4479939438405	135.410613904898
110.0	舞鶴市字常817-2	常ちびっこ広場	35.449611569965	135.409545744152
111.0	舞鶴市字常597		35.4501371240072	135.407421410824
112.0	舞鶴市常新町84	常公園	35.4499036963302	135.402862854276
113.0	舞鶴市京月東町2-36	京月東町（東）ちびっこ広場	35.4485631921913	135.402957053391
114.0	舞鶴市京月東町1-39	京月東町（西）ちびっこ広場	35.4492278212337	135.400928907702
115.0	舞鶴市常442-10横	常（西）ちびっこ広場	35.4507490841933	135.404048063129
116.0	舞鶴市亀岩町19	ガーデンハイツフェンス	35.4515226770313	135.398446360967
117.0	舞鶴市京月町100-112	京月ちびっこ広場	35.448441698128	135.397914356331
118.0	舞鶴市亀岩町15-6	亀岩ちびっこ広場	35.4523217097338	135.39749711277
119.0	舞鶴市田中町5-1	泉源寺公園	35.4823940244817	135.416159701075
120.0	舞鶴市泉源寺766	東舞鶴高校フェンス	35.4841072094543	135.414401797335
121.0	舞鶴市字田中641	集積場横防火水槽	35.483636593744	135.427047260983
122.0	舞鶴市字田中54-6	田中東公会堂前防火水槽	35.4833506572864	135.42484249104
123.0	舞鶴市字小倉280-41向かい	小倉（五反田）ちびっこ広場	35.4797142366042	135.423348838199
124.0	舞鶴市字小倉1287-1付近	小倉防火水槽	35.4794425600035	135.428635800062
125.0	舞鶴市字小倉67-1	志楽小学校	35.4809125595067	135.428803048044
126.0	舞鶴市田園町75	安岡田園町ちびっこ広場	35.4828154112339	135.434981475498
127.0	舞鶴市字安岡979	防火水槽	35.4847266953002	135.433131922937
128.0	舞鶴市字安岡568-17	安岡国森ちびっこ広場	35.4863160162642	135.435244976982
129.0	舞鶴市鹿原西町200-34	鹿原西町ちびっこ広場	35.4799526993263	135.438316780042
130.0	舞鶴市字鹿原209-3	みずなぎ学園	35.4805956879337	135.439593533323
131.0	舞鶴市字吉坂196	防火水槽	35.4863518994717	135.453885317564
132.0	舞鶴市字吉坂387-3	吉坂公会堂横防火水槽	35.4857392027234	135.457112673514
133.0	舞鶴市字松尾253	松尾寺	35.4965194902355	135.469458124756
134.0	舞鶴市字大波下765-16	エスペラル東舞鶴角	35.5027948267039	135.399777447991
135.0	舞鶴市字大波下435		35.5019971148064	135.402566050654
136.0	舞鶴市字大波下921	朝来第１汚水中継ポンプ場	35.499215383742	135.404892627613
137.0	舞鶴市字大波上325-1	大波上バス停前防火水槽	35.5034545910192	135.41690798674
138.0	舞鶴市朝来西町4-2	朝来西町府営住宅公園	35.5004839238	135.424737999676
139.0	舞鶴市朝来西町3-20	朝来西公園	35.4996161238585	135.425516250941
140.0	舞鶴市字吉野567-1	朝来新ちびっこ広場	35.5000019070617	135.430382990062
141.0	舞鶴市字朝来中619	防火水槽	35.500723938487	135.427425746118
142.0	舞鶴市字朝来中545-1	朝来小学校	35.5002321992487	135.431566175739
143.0	舞鶴市字吉野809		35.4985243981642	135.434816805327
144.0	舞鶴市白屋町12-3	白屋公民館横畑	35.494363739148	135.434564703051
145.0	舞鶴市字白屋168	舞鶴高専（岡安入口側）	35.4971599809348	135.43727599444
146.0	舞鶴市字登尾541東側	佐々木徹様所有地	35.5077777377753	135.450237633375
147.0	舞鶴市字杉山430	杉山集会所横田んぼ	35.5066152561337	135.462026265882
148.0	舞鶴市字河辺中604	八幡神社	35.5213053375598	135.40596280595
149.0	舞鶴市字西屋553	防火水槽	35.5250259430138	135.41131730585
150.0	舞鶴市字室牛139		35.5235706302423	135.418898888967
151.0	舞鶴市字河辺由里88-3	観音寺登り口	35.5272101325115	135.419046008971
152.0	舞鶴市字河辺原266付近	河辺原防火水槽	35.5283488250556	135.423698287808
153.0	舞鶴市字栃尾470-1	栃尾バス停前防火水槽	35.5316489623624	135.436281450879
154.0	舞鶴市字大山224-1	大山公民館	35.5487310010034	135.450846680532
155.0	舞鶴市字田井120-1	ＮＴＴ北京都支店田井別館	35.565705989562	135.454053744798
156.0	舞鶴市字田井180		35.5668918398958	135.454068116092
157.0	舞鶴市字成生626-2	成生水産方	35.5787307615762	135.447779523717
158.0	舞鶴市字野原886		35.5693849448725	135.4287274224
159.0	舞鶴市字野原551		35.5684945576463	135.428377663508
160.0	舞鶴市字小橋194		35.5600561230482	135.400699467704
161.0	舞鶴市字三浜685	旧丸山小学校	35.5593160704707	135.398887727507
162.0	舞鶴市字三浜759	自然休養村三浜管理センター	35.5565920520001	135.394233974505
163.0	舞鶴市字瀬崎448	瀬崎集会所前	35.5418359350209	135.349184274435
164.0	舞鶴市字大丹生212	大丹生コミュニティセンター	35.5211461384032	135.350617752797
165.0	舞鶴市字千歳131-5	千歳集会所横新海公園	35.5117082935142	135.346738967712
166.0	舞鶴市字千歳895-2	駐在所前親海公園	35.5101760190093	135.34741562195
167.0	舞鶴市字佐波賀144	下佐波賀集会所前	35.5051365414567	135.362415469315
168.0	舞鶴市字佐波賀534		35.5059404107929	135.37126492048
169.0	舞鶴市字平403-1	平小学校跡地	35.5161371198255	135.388319871183
170.0	舞鶴市字赤野420	赤野防火水槽横畑	35.5219008930017	135.38975751033
171.0	舞鶴市字平1583	大浦小学校	35.5179963078635	135.396053063753
172.0	舞鶴市字中田1106	京都丹の国農協協同組合舞鶴東支店	35.5154787081409	135.402295879675
173.0	舞鶴市字余部上978-3	榎配水池フェンス	35.4615183921164	135.358570760068
174.0	舞鶴市字余部上927付近		35.463704602142	135.363367923622
175.0	舞鶴市字余部上821	さくらんぼ園前	35.467247274196	135.365240184617
176.0	舞鶴市字余部上712-1	道芝集会所	35.4667216637852	135.367565887829
177.0	舞鶴市字余部上535-8	若宮公園	35.4702006500097	135.36273119475
178.0	舞鶴市字余部上612-2付近	駐車場フェンス	35.4682756843476	135.364537704344
179.0	舞鶴市字余部上450	みずのガス駐車場	35.4708359348769	135.365785273011
180.0	舞鶴市字余部上70		35.4739820273661	135.365793853575
181.0	舞鶴市字余部上101		35.474037517412	135.363965628623
182.0	舞鶴市字余部上248-2	上４丁目ちびっこ広場	35.4717459212977	135.366812038844
183.0	舞鶴市字余部下1168	中総駐車場(旧東消防署中出張所裏)	35.4750059370941	135.367660234429
184.0	舞鶴市字余部下1180	身体障害者福祉センター駐車場（国道側）	35.4773116755213	135.368999119171
185.0	舞鶴市字余部下1167付近	中舞鶴公園	35.4765403743825	135.369517097871
186.0	舞鶴市字余部下1182	旧中駅前ちびっこ広場	35.4769122789018	135.367476280873
187.0	舞鶴市字余部下1116		35.4769986778159	135.364548459933
188.0	舞鶴市字余部下765-1	共済病院テニスコートフェンス	35.4775114374985	135.36629497225
189.0	舞鶴市字余部下1063	中保育所	35.4768300189697	135.362785036398
190.0	舞鶴市字余部下1033-4		35.4776181990214	135.360561120511
191.0	舞鶴市字余部下957	長浜口防火水槽	35.4804538078882	135.359798801404
192.0	舞鶴市字余部下997向い	荒田北ちびっこ広場	35.4770913416114	135.358501340683
194.0	舞鶴市字長浜820	舞鶴セントラルマリーナフェンス	35.4866530506314	135.362668170528
195.0	舞鶴市字長浜84付近	長浜防火水槽	35.4812873763006	135.354095241791
196.0	舞鶴市字長浜725	舞鶴長浜簡易郵便局	35.4819417414418	135.349847847126
197.0	舞鶴市字余部下43-15	荒田交流センター	35.4773842654592	135.35721525494
198.0	舞鶴市字和田371-4	瀬崎橋三叉路	35.4755942167731	135.34858506098
199.0	舞鶴市白浜台72-42	白浜台（西）ちびっこ広場	35.4764703232321	135.3505709364
200.0	舞鶴市白浜台68-52	白浜台配水ポンプ場	35.4757261101134	135.350550965311
201.0	舞鶴市白浜台632-3		35.4757723772565	135.351488172587
202.0	舞鶴市字和田640-4	和田中学校	35.4740876415095	135.352652021516
203.0	舞鶴市大内野町58	大内野公園	35.4453995115386	135.333960638496
204.0	舞鶴市字南田辺41	京都地方裁判所舞鶴支部前	35.443417726987	135.329651334517
205.0	舞鶴市字引土7-10	西舞鶴駅前市自転車置場	35.4425326682614	135.329494467118
206.0	舞鶴市字南田辺2-5	南田辺市営駐車場フェンス西側	35.4469613642653	135.330083424675
207.0	舞鶴市字南田辺128	城北中学校正門横	35.4479805242448	135.33178716617
208.0	舞鶴市字北田辺128-1	明倫小学校（明倫緑地側）	35.447775987855	135.329099087842
209.0	舞鶴市字円満寺158-6	西市民プラザ北面フェンス	35.4464400251095	135.327937510249
210.0	舞鶴市字北田辺162	ＮＴＴ北京都支店舞鶴西別館	35.4476522686677	135.328174765302
211.0	舞鶴市字北田辺159-1	西舞鶴郵便局横橋	35.447410023277	135.32721924794
212.0	舞鶴市字北田辺150付近	竹屋橋	35.4474622027965	135.326402413069
213.0	舞鶴市字引土337-5	ヨネザワ洋装店	35.4447551351039	135.326242185672
214.0	舞鶴市字引土新23向かい		35.4454805407862	135.324110344263
215.0	舞鶴市字寺内143-4	丹和米油株式会社	35.4480050751262	135.325740754707
216.0	舞鶴市字寺内7	玉秀稲荷神社	35.4489767988204	135.325299068716
217.0	舞鶴市字紺屋25	笑原神社	35.4480663096772	135.323790910998
218.0	舞鶴市字松陰79	松陰ちびっこ広場跡地	35.4505431938069	135.323951141271
219.0	舞鶴市字西110-5付近	西消防署（海側）	35.4512214122558	135.319203413063
220.0	舞鶴市字松陰18-7	飯野港運株式会社南側フェンス	35.4512199261424	135.322892809903
221.0	舞鶴市字松陰5-5	島崎公園	35.4515896326854	135.324004713036
222.0	舞鶴市字上安久16-4	西運動広場	35.450583642816	135.333733959901
223.0	舞鶴市字円満寺100-4	舞鶴こども園	35.4500013261882	135.331629939192
224.0	舞鶴市字北田辺108	曙ハイツ東側フェンス	35.4523234228466	135.330568577462
225.0	舞鶴市字魚屋95-4	静渓川左岸フェンス	35.4518363966952	135.328863222386
226.0	舞鶴市字魚屋236-1	相愛保育園	35.4530087499387	135.329580341505
227.0	舞鶴市字上安久640-13	舞鶴小型運送駐車場	35.4554643683812	135.325799797579
228.0	舞鶴市字魚屋213-6		35.4524394147501	135.327914084796
229.0	舞鶴市字竹屋108	福井康商店	35.4510214176638	135.32678780454
230.0	舞鶴市字上安久163付近	米田川フェンス	35.4518348090514	135.334002515166
231.0	舞鶴市字竹屋715	防火水槽	35.4534417164128	135.33240701102
232.0	舞鶴市字下安久670付近	道路フェンス	35.4532669619884	135.331297101439
233.0	舞鶴市字東吉原317	吉原小学校	35.456506031295	135.329428892859
234.0	舞鶴市字東吉原531		35.4567775615631	135.327770919594
235.0	舞鶴市字東吉原655	水無月神社	35.4577241442428	135.328438950557
236.0	舞鶴市字下安久557-18	旧小坂ポンプ所フェンス	35.4608361714315	135.32795313646
237.0	舞鶴市字下安久337-6	株式会社起動工業資材置き場	35.4642257874996	135.33011978653
238.0	舞鶴市字下福井910	近畿地方整備局舞鶴港湾事務所	35.4495559338	135.314565218606
239.0	舞鶴市字下福井100	カミヤオートフェンス	35.4482900281034	135.308934603249
240.0	舞鶴市字下福井432-20	星和ちびっこ広場	35.44911891821	135.305694959407
242.0	舞鶴市字上福井107	京滋三菱ふそう自動車販売株式会社 舞鶴支店	35.4460139493215	135.2988324664
243.0	舞鶴市字上福井2063東	不動産会社管理地	35.4455573056526	135.295261974137
244.0	舞鶴市字上福井1007-1	上福井公民館手前角	35.4437402878768	135.295628076621
245.0	舞鶴市字喜多813-1	喜多公民館	35.4593713354446	135.310263800015
246.0	舞鶴市字喜多200-16		35.454754504938	135.306058471818
247.0	舞鶴市字大君431向かい	大君防火水槽	35.4723203838639	135.312177354701
248.0	舞鶴市字吉田130	吉田区駐車場	35.4801174499705	135.316888172893
249.0	舞鶴市字吉田188	吉田ちびっこ広場	35.4816130909063	135.315418290905
250.0	舞鶴市字青井75	旧青井小学校	35.4879820799099	135.322468295129
251.0	舞鶴市字青井273	結城神社	35.4899622382006	135.32072094011
252.0	舞鶴市字白杉67?1	橋フェンス	35.4976976417048	135.332424410575
253.0	舞鶴市字白杉92		35.4988345091765	135.332394699796
254.0	舞鶴市字高野由里1001-1	中嶋電気向い	35.431858163032	135.323413551519
255.0	舞鶴市字高野由里361		35.4307832930887	135.320180593868
256.0	舞鶴市字女布406-3	城南会館北面フェンス	35.4271241383822	135.320612851138
257.0	舞鶴市字女布308	防火水槽	35.4225079721909	135.319083747267
258.0	舞鶴市字女布750-1	女布（南）ちびっこ広場	35.4271627749108	135.322313271874
259.0	舞鶴市字高野台1-2	高野小学校	35.4282787395392	135.316592435109
260.0	舞鶴市字野村寺266-6		35.4319250337021	135.308371413919
261.0	舞鶴市字野村寺594		35.4311093344784	135.304262624452
262.0	舞鶴市字城屋813	城屋防火水槽	35.4298162165128	135.295978325192
263.0	舞鶴市字城屋881-1	城屋出荷組合集荷場所前	35.4286603603933	135.296748182029
264.0	舞鶴市字城屋1318	奥山橋三叉路手前畑	35.419657486147	135.299233696218
265.0	舞鶴市字引土41	ネットワークフェンス	35.444146370489	135.32508729608
266.0	舞鶴市字引土557-1	ディナモ舞鶴スポーツクラブフェンス	35.4370142253869	135.32471860859
267.0	舞鶴市字引土427-3付近	天理教山陰大教会駐車場フェンス	35.4405361227394	135.325233974738
268.0	舞鶴市字引土242	舞鶴種苗園フェンス	35.4420342826087	135.32679960516
269.0	舞鶴市字引土395-2		35.4410472374229	135.325978098664
270.0	舞鶴市字引土329	マナイ駐車場	35.4443882716414	135.327360102344
271.0	舞鶴市字引土226-9	サンライト駐車場	35.4417414872733	135.328417575541
272.0	舞鶴市字引土172-3		35.43981534979	135.327451302515
273.0	舞鶴市字引土93-5	相根商店横植込	35.4369911120829	135.328582669605
274.0	舞鶴市字伊佐津307	三柱神社	35.4367563766725	135.331055257233
275.0	舞鶴市字伊佐津200-17	ドラッグささき東側フェンス	35.4385930418727	135.331914644212
276.0	舞鶴市字伊佐津104		35.4399277760058	135.333257801871
277.0	舞鶴市字伊佐津137-1	バザールタウン駐車場南側フェンス	35.4381245032973	135.332745381413
278.0	舞鶴市字境谷72-5	伊佐津児童公園フェンス	35.4347848685546	135.332673245237
279.0	舞鶴市字境谷665向かい		35.4371107561703	135.335930637799
280.0	舞鶴市字万願寺8-45	伊佐津川荘苑ちびっこ広場	35.4324591021578	135.336255668361
281.0	舞鶴市字今田896	防火水槽	35.4261805391738	135.337529821216
282.0	舞鶴市字七日市92	七日市ちびっこ広場	35.4266082910961	135.330646563737
283.0	舞鶴市字七日市310		35.4287667797288	135.330176275368
284.0	舞鶴市字公文名490	中筋小学校	35.4311868130366	135.33001684802
285.0	舞鶴市字七日市388-1		35.4300925682001	135.332594122312
286.0	舞鶴市字公文名564-1向い	伊佐津鎌風呂ちびっこ広場	35.4354723527628	135.329925980467
287.0	舞鶴市字女布65-12	府営京田団地集会室	35.4274354239245	135.325055497758
288.0	舞鶴市字公文名293	城南中学校（国道側）	35.4297160504457	135.328127354388
289.0	舞鶴市字公文名30南側	城南中学校前歩道フェンス	35.4270456922302	135.327339981443
290.0	舞鶴市字京田161-1	舞鶴水田	35.4251289339842	135.328809569291
291.0	舞鶴市字京田333		35.4227226690413	135.329395649805
292.0	舞鶴市字十倉75-5	大嶋カーサービスフェンス	35.4207000402517	135.329992020826
293.0	舞鶴市字真倉311-12向い	真倉防火水槽	35.4039651636715	135.325208545944
294.0	舞鶴市字真倉599		35.400804769705	135.321298422617
295.0	舞鶴市字真倉825	真倉公会堂	35.3950642620912	135.31903912145
296.0	舞鶴市字今田848	青谷橋北詰	35.4226548118072	135.337594341677
297.0	舞鶴市字今田464-1		35.4199968315803	135.340902040882
298.0	舞鶴市字布敷79-1	池内小学校	35.410461924173	135.343463915979
299.0	舞鶴市字堀113-3	堀前橋三叉路先	35.4096180805682	135.342487112895
300.0	舞鶴市字池ノ内下147-1向い	府道道路脇	35.4084543666564	135.347716391949
301.0	舞鶴市字布敷388?1向かい	布敷防火水槽	35.4085371205533	135.354191518098
302.0	舞鶴市字別所617向かい	別所防火水槽	35.4130635416262	135.360335051624
303.0	舞鶴市字上根105	防火水槽	35.423036378134	135.380178899013
304.0	舞鶴市字上根312	地福寺	35.4247533099849	135.383468965222
305.0	舞鶴市字寺田339-1		35.4261687066147	135.385568804231
306.0	舞鶴市字白滝175	防火水槽	35.4175425840726	135.393334588041
307.0	舞鶴市字岸谷163	旧岸谷分校	35.4064758287138	135.389117070823
308.0	舞鶴市上安東町3	今村工業機材倉庫	35.4579486681357	135.351729283522
309.0	舞鶴市字上安932-1	スプリングコート	35.4527256202403	135.348252996909
310.0	舞鶴市字上安158-2	高迫団地	35.4508952381142	135.341557247917
311.0	舞鶴市字上安久240	舞鶴税務署フェンス	35.4512730738754	135.337499154211
312.0	舞鶴市字倉谷1-2	余内小学校（東側）	35.4486510648304	135.342746296819
313.0	舞鶴市字倉谷32-6	余内小学校（南側）	35.4476445903947	135.342190857974
314.0	舞鶴市字倉谷69-4	倉谷西ちびっこ広場	35.4487833523909	135.340503167667
315.0	舞鶴市字倉谷1657向かい	浜田橋南側側道フェンス	35.4475688026436	135.338150871503
316.0	舞鶴市字倉谷909-4	倉谷川右岸フェンス	35.4449439935091	135.340413844383
317.0	舞鶴市字倉谷1306	天清川フェンス	35.4467103878954	135.342663838362
318.0	舞鶴市字倉谷1090-1	日産部品京滋販売株式会社舞鶴営業所	35.4450874280072	135.344755106055
319.0	舞鶴市字福来103-2		35.4458898679798	135.346564951634
320.0	舞鶴市字福来383	福来コミュニティーセンター	35.4484136844723	135.352175602018
321.0	舞鶴市字福来182-1	京都生協西側フェンス	35.4476330989008	135.350014073939
322.0	舞鶴市字福来255-1	Ｆクック	35.4511473516949	135.354946220547
323.0	舞鶴市字上安1697-1	寿荘入口西	35.4512511202566	135.355775054384
324.0	舞鶴市天台新町131-2	天台新町ちびっこ広場	35.4501600929125	135.361056006514
325.0	舞鶴市清美が丘416	清美ケ丘集会所	35.454422822686	135.359028787981
326.0	舞鶴市字清道106-2付近	清美が丘公園	35.4556006535702	135.35938321387
327.0	舞鶴市字清道18-2	清道新町ちびっこ広場	35.4535323607671	135.361663321676
328.0	舞鶴市字桑飼上769	上村児童公園	35.4182752071168	135.210790121707
329.0	舞鶴市字桑飼上1152-2		35.4234775787011	135.220244468191
330.0	舞鶴市字桑飼上1679付近		35.4107582162342	135.231275224357
331.0	舞鶴市字桑飼下598		35.4242182275988	135.235729364677
332.0	舞鶴市字桑飼下125付近		35.4226729182051	135.239532704399
333.0	舞鶴市字地頭152	地頭生活改善センター	35.4259911392647	135.21714444312
334.0	舞鶴市字地頭692		35.4306464884119	135.211626267183
335.0	舞鶴市字地頭1045	防火水槽（小俣集会所前）	35.442490122776	135.20791380063
336.0	舞鶴市字滝ケ宇呂94-1	滝ケ宇呂公民館	35.4568667356247	135.202925351414
337.0	舞鶴市字大俣219-2		35.4357346949568	135.205791623519
338.0	舞鶴市字大俣538	大俣二班集会所前	35.4393335644689	135.19599403436
339.0	舞鶴市字大俣764	大俣生活改善センター	35.4404470636833	135.188348832184
340.0	舞鶴市字岡田由里1143	岡田由里バス停向畑	35.4302011139585	135.231045775506
341.0	舞鶴市字岡田由里591	由里谷バス停前広報板横	35.4368378638287	135.222959968742
342.0	舞鶴市字富室228		35.4401331443538	135.240643070053
343.0	舞鶴市字富室568	般若寺防火水槽	35.4457374417743	135.232287037962
344.0	舞鶴市字西方寺270		35.4447550965342	135.214218329421
345.0	舞鶴市字西方寺134-1		35.4399204103681	135.217205678116
346.0	舞鶴市字河原174-1	河原集会所横	35.4567655046119	135.229227507591
347.0	舞鶴市字下見谷46		35.4658609798932	135.233002614698
348.0	舞鶴市字下漆原50		35.4624413021719	135.237490877426
349.0	舞鶴市字下漆原270	下漆原ちびっこ広場	35.4634208961173	135.242433856545
350.0	舞鶴市字下漆原556		35.4766983594779	135.241102462816
351.0	舞鶴市字上漆原226	上漆原自治会館横	35.492903760635	135.24292212866
352.0	舞鶴市字上漆原633向かい	上漆原防火水槽	35.5036091952677	135.239136259693
353.0	舞鶴市字長谷184	公民館前	35.4830420634179	135.252751873787
354.0	舞鶴市字志高1005	加佐分室	35.4288708140129	135.247696687209
355.0	舞鶴市字志高661-1	志高防火水槽（菱田組横）	35.431112085923	135.251620219172
356.0	舞鶴市字志高553-5付近	みぢかなデイサービス付近防火水槽	35.4355854816446	135.251107910964
357.0	舞鶴市字大川677-1	小津田防火水槽	35.4424423505642	135.257120722278
358.0	舞鶴市字大川588付近	大川防火水槽	35.4475907010873	135.260492362378
359.0	舞鶴市字久田美940-1	岡田小学校	35.4280939201777	135.257511941419
360.0	舞鶴市字久田美1418	久田美広場	35.4226847634338	135.256610487938
361.0	舞鶴市字久田美1814		35.417327918637	135.255699717629
362.0	舞鶴市字久田美229	防火水槽	35.4330821095735	135.263233081572
363.0	舞鶴市字三日市973		35.4433973666845	135.265253883221
364.0	舞鶴市字上東545	上東防火水槽	35.4541740247914	135.277662252202
365.0	舞鶴市字上東357		35.4541208790593	135.27421149702
366.0	舞鶴市字下東594付近		35.4587050426903	135.286782150784
367.0	舞鶴市字中山267-1	旧由良川中学校	35.470288282523	135.282321332386
368.0	舞鶴市字水間759付近	水間作業場横	35.472921660509	135.290330186083
369.0	舞鶴市字水間510	水間下公民館横	35.4780394801168	135.284497081059
370.0	舞鶴市字和江501	和江防火水槽横	35.4775070008603	135.275164162545
371.0	舞鶴市字丸田481	防火水槽	35.4600268200156	135.278830447479
372.0	舞鶴市字丸田74	由良川小学校	35.459421297702	135.271849772761
373.0	舞鶴市字八田191		35.4570077413723	135.270246851206
374.0	舞鶴市字八田962	由良川学園臨時駐車場前	35.4536591679325	135.263846387327
375.0	舞鶴市字八戸地529-1		35.4595768684527	135.259523149879
376.0	舞鶴市字蒲江670	蒲江上乾燥場	35.4927075577898	135.290657330978
377.0	舞鶴市字蒲江1013付近		35.4987523717478	135.292653112644
378.0	舞鶴市字油江611	防火水槽	35.5049241699527	135.293858669879
379.0	舞鶴市字西神崎287		35.5102839216795	135.294921545486
380.0	舞鶴市字東神崎165-2		35.5116803841268	135.299296378491
193.0	舞鶴市字長浜882-	長浜市民交流センター	35.4853951519112	135.362656501518
241.0	舞鶴市字下福井466-3	水圧調整所	35.4479444001407	135.304211536303
