code	address	place	lat	lon
1-1	京都市南区西九条南小路町1	九条中学校(東側)	34.980676	135.7503605
1-2	京都市南区西九条南小路町1	九条中学校(北側)	34.9810671	135.7500869
1-3	京都市南区西九条猪熊町31	福野方倉庫		
1-4	京都市南区西九条唐橋町4	五十棲方 月極駐車場	34.9810265	135.7508312
1-5	京都市南区西九条戒光寺町	戒光寺公園	34.9846327	135.7519762
2-1	京都市南区西九条大国町4	鳥羽高等学校	34.9773985	135.7433612
2-2	京都市南区西九条高畠町35-2	株式会社美十駐車場	34.9733344	135.7444539
2-3	京都市南区西九条唐戸町	南第一自歩1号線	34.9757028	135.7429853
2-4	京都市南区西九条高畠町45	京都日産自動車(株)本社店	34.9745883	135.7450017
2-5	京都市南区西九条豊田町9	豊田公園	34.9749189	135.7441991
2-6	京都市南区西九条豊田町4	日之出水道機器株式会社京都営業所	34.9750377	135.7460124
2-7	京都市南区西九条大国町	月極国道ガレージ	34.9767611	135.7460246
3-1	京都市南区西九条御幸田町109	九条塔南小学校(東側)	34.9759442	135.7487895
3-2	京都市南区西九条御幸田町109	九条塔南小学校(西側)	34.9756804	135.7478024
3-3	京都市南区西九条南田町1-3	南区役所	34.9765985	135.7462049
3-4	京都市南区西九条南田町	西九条公園	34.9774386	135.7478131
3-5	京都市南区西九条西柳ノ内町13	柳の内公園	34.9746104	135.750723
3-6	京都市南区西九条比永城町	比永城公園	34.9775376	135.7506885
3-7	京都市南区西九条森本町37	旧生活環境美化センター	34.9731938	135.7498756
4-1	京都市南区西九条春日町13	九条弘道小学校(西側)	34.9809818	135.7538098
4-2	京都市南区西九条春日町13	九条弘道小学校(東側)	34.9809467	135.7553977
4-3	京都市南区西九条春日町45	春日公園	34.9811125	135.7545226
4-4	京都市南区西九条島町(近鉄高架下)	東寺駅自転車等駐車場	34.9791408	135.7524685
4-5	京都市南区西九条蔵王町(近鉄高架下)	ちびっこ広場	34.9811729	135.7525255
4-6	京都市南区西九条東柳ノ内町(近鉄高架下)	近鉄十条駅自転車等駐車場	34.9741601	135.7522229
4-7	京都市南区西九条東島町21	随林寺保育園	34.9771495	135.7537693
5-1	京都市南区東九条南烏丸町19	凌風学園東和校地第2施設(東側)	34.9781736	135.7594725
5-2	京都市南区東九条下殿田町24	京都ライフサポート協会 若杉	34.9803372	135.7582041
5-3	京都市南区東九条下殿田町69	殿田公園	34.9768059	135.7576093
5-4	京都市南区東九条南烏丸町19	凌風学園東和校地第2施設(西側)	34.9783143	135.7583996
5-5	京都市南区東九条石田町42	警察職員待機宿舎(石田町)	34.973384	135.7606901
5-6	京都市南区東九条西河辺町51	SAIGA京都物流センター	34.9733664	135.7562106
5-7	京都市南区上鳥羽苗代町41	苗代公園	34.9710752	135.7582645
5-8	京都市南区上鳥羽南苗代町	関西電力送配電 勧進橋変電所	34.9690368	135.7572023
6-1	京都市南区久世殿城町575-3	向陽グランドハイツ	34.9517127	135.7192834
6-2	京都市南区久世築山町	久世築山第二公園	34.9527783	135.722674
6-3	京都市南区久世築山町212-1	株式会社カワタキコーポレーション	34.9517368	135.7250782
6-4	京都市南区久世大藪町	南大藪公園	34.9498044	135.7186784
6-5	京都市南区久世大藪町	東大藪公園	34.9497163	135.7218005
6-6	京都市南区久世東土川町242	株式会社ホリゾン	34.9477709	135.7197346
6-7	京都市南区久世東土川町	東土川公園	34.9427809	135.7185264
7-1	京都市南区東九条中御霊町55	元陶化小学校(北側)	34.9794354	135.762768
7-2	京都市南区東九条中御霊町55	元陶化小学校(東側)	34.9786003	135.7629182
7-3	京都市南区東九条柳下町62	念仏寺	34.9743816	135.7638929
7-4	京都市南区東九条南松ノ木町	松ノ木公園	34.9751449	135.7647835
7-5	京都市南区東九条東松ノ木町1	東松ノ木市営住宅	34.9746384	135.7649328
7-6	京都市南区東九条南松ノ木町6	松ノ木保育園	34.9756892	135.7655598
8-1	京都市南区東九条東山王町27	元山王小学校(北側)	34.9829556	135.7616482
8-2	京都市南区東九条東山王町27	元山王小学校(東側)	34.9824897	135.7627318
8-3	京都市南区東九条南山王町5-5	京都市立南図書館	34.9810784	135.7611553
8-4	京都市南区東九条中殿田町10	関西電力送配電 東寺変電所(北側)	34.9818939	135.756099
8-5	京都市南区東九条北烏丸町11	稲垣医学研究所	34.9818638	135.7603988
8-6	京都市南区東九条室町1-2	関西電力東寺社宅	34.9824587	135.7576544
8-7	京都市南区東九条中殿田町10	関西電力送配電 東寺変電所(東側)	34.9817489	135.7567964
9-1	京都市南区東九条東岩本町	北岩本公園(南側)	34.9825955	135.7656233
9-2	京都市南区東九条北河原町	北河原公園	34.9836427	135.7658685
9-3	京都市南区東九条東岩本町	北岩本公園(北側)	34.9830438	135.7656662
9-4	京都市南区東九条東岩本町31番地	東岩本市営住宅2棟	34.9819213	135.7647377
9-5	京都市南区東九条北河原町	高瀬川南市営住宅	34.9838229	135.7665767
9-6	京都市南区東九条南岩本町21番地	南岩本公園	34.9808411	135.7648108
10-1	京都市南区唐橋大宮尻町22	開建高等学校	34.9803827	135.7361605
10-2	京都市南区唐橋赤金町67	今中ガレージ	34.9817745	135.7418286
10-3	京都市南区唐橋井園町	八条中学校グラウンド	34.9817544	135.7399096
10-4	京都市南区唐橋西寺町65	唐橋小学校	34.9802961	135.7388204
10-5	京都市南区唐橋平垣町24	八条市営住宅		
10-6	京都市南区唐橋西寺町	唐橋西寺公園	34.9812159	135.7386085
10-7	京都市南区唐橋門脇町35	八条中学校	34.982932	135.7393359
10-8	京都市南区唐橋赤金町61-8	赤金公園	34.9824947	135.7423077
10-9	京都市南区唐橋羅城門町1-2	唐橋羅城門公園	34.9794519	135.7427472
11-1	京都市南区唐橋経田町39	唐橋第二市営住宅	34.9763713	135.739406
11-2	京都市南区唐橋芦辺町5	唐橋市営住宅(西側)	34.9752621	135.7401959
11-3	京都市南区唐橋芦辺町5	唐橋市営住宅(東側)	34.9752005	135.7414297
11-4	京都市南区唐橋琵琶町	琵琶塚公園(北側)		
11-5	京都市南区唐橋経田町16	メディナ唐橋	34.9780816	135.7407502
11-6	京都市南区唐橋南琵琶町	琵琶塚公園(南側)	34.9756978	135.7394301
11-7	京都市南区吉祥院南落合町40	京都十条団地	34.9724373	135.7411535
12-1	京都市南区東寺町	西川ガレージ	34.9835655	135.7452468
12-2	京都市南区八条町	八条公園(西側)	34.9850323	135.7461952
12-3	京都市南区八条町	八条公園(北東側)	34.9850411	135.7469998
12-4	京都市南区八条町509	六孫王神社	34.9843547	135.7460717
12-5	京都市南区八条町	六孫王神社駐車場(出入口西側)	34.9843467	135.7445537
13-1	京都市南区八条内田町20-2	南大内小学校(東側)	34.9801489	135.7450429
13-2	京都市南区八条内田町20-2	南大内小学校(南側)	34.9800478	135.7442651
13-3	京都市南区八条内田町20-2	南大内小学校(北側)	34.9806896	135.7446192
13-4	京都市南区八条源町	弥栄駐車場	34.9829129	135.7422224
13-5	京都市南区八条源町28-1	南第一経18号線	34.9842641	135.7424142
13-6	京都市南区八条源町	竹内方駐車場	34.9818141	135.7441268
14-1	京都市南区上鳥羽城ヶ前町236	上鳥羽小学校	34.9641125	135.7426386
14-2	京都市南区上鳥羽岩ノ本町347	株式会社田中工務店ガレージ	34.9592556	135.742634
14-3	京都市南区上鳥羽鴨田町1	株式会社藤井合金製作所	34.9644418	135.7459039
14-4	京都市南区上鳥羽鉾立町	鉾立公園	34.9704204	135.7535902
14-5	京都市南区上鳥羽高畠町	上調子公園	34.9713848	135.7434722
14-6	京都市南区上鳥羽北島田町	島田公園	34.9666384	135.7433843
14-7	京都市南区上鳥羽戒光町21	戒光町集会所	34.9652357	135.7385593
14-8	京都市南区上鳥羽山ノ本町332	上鳥羽南部いきいき市民活動センター	34.96056	135.7354974
15-1	京都市南区吉祥院船戸町34	吉祥院小学校(西側)	34.9747161	135.7316349
15-2	京都市南区吉祥院船戸町34	吉祥院小学校(東側)	34.9752524	135.7332388
15-3	京都市南区吉祥院西浦町	西浦公園	34.9724299	135.7275491
15-4	京都市南区吉祥院砂ノ町47	吉祥院いきいき市民活動センター	34.9690665	135.732226
15-5	京都市南区吉祥院井ノ口町	吉祥院公園	34.9762569	135.7318422
15-6	京都市南区吉祥院西浦町	西浦東公園	34.9723244	135.7317602
15-7	京都市南区吉祥院西定成町35	京都市洛南身体障害者福祉会館	34.9769138	135.7361466
15-8	京都市南区吉祥院政所町	西政所公園		
15-9	京都市南区吉祥院菅原町25	竹尻公園	34.970273	135.7327102
16-1	京都市南区吉祥院三ノ宮町23	祥豊小学校	34.9771552	135.7273017
16-2	京都市南区吉祥院三ノ宮西町	三の宮公園	34.9758284	135.7273079
16-3	京都市南区吉祥院中河原里西町14	内河原公園	34.9809614	135.7206696
16-4	京都市南区吉祥院宮ノ東町	宮の森公園(南側)	34.9817666	135.7241227
16-5	京都市南区吉祥院宮ノ東町	宮の森公園(北側)	34.9827863	135.7234682
16-6	京都市南区吉祥院中河原里北町	中河原公園	34.9808912	135.7250454
16-7	京都市南区吉祥院西ノ庄淵ノ西町	西ノ庄公園	34.9830617	135.7278911
16-8	京都市南区吉祥院西ノ庄東屋敷町42	シャーメゾン京都・雅	34.9831014	135.7301727
17-1	京都市南区吉祥院蒔絵町14	祥栄小学校(南側)	34.9673563	135.737187
17-2	京都市南区吉祥院蒔絵町14	祥栄小学校(北側)	34.9681299	135.7376322
17-3	京都市南区吉祥院高畑町	高畑公園	34.9705313	135.7357614
17-4	京都市南区吉祥院石原町	石原公園	34.9644402	135.7306951
17-5	京都市南区吉祥院石原上川原町48他	久世橋公園	34.9673006	135.7254903
17-6	京都市南区吉祥院石原南町	石原南公園	34.9618924	135.7307078
17-7	京都市南区吉祥院嶋高町	高町公園	34.9606394	135.730322
17-8	京都市南区吉祥院石原堂ノ後町27	北石原公園	34.9675363	135.7289615
18-1	京都市南区久世大藪町72	南区役所久世出張所	34.9599389	135.7192945
18-2	京都市南区久世大藪町62	大藪小学校	34.9607203	135.7178042
18-3	京都市南区久世大築町54-1	久世いきいき市民活動センター	34.960492	135.7218575
18-4	京都市南区久世大築町	大築公園	34.9596091	135.7224479
18-5	京都市南区久世築山町328	久世ふれあいセンター	34.9588873	135.7238727
18-6	京都市南区久世殿城町481-1	久世中学校(東側)	34.9563143	135.7194332
18-7	京都市南区久世殿城町481-1	久世中学校(北側)	34.9567979	135.7191221
18-8	京都市南区久世中久世町五丁目	中久南公園	34.958724	135.7117194
19-1	京都市南区久世上久世町454	久世西小学校	34.9626316	135.7146237
19-2	京都市南区久世中久世町一丁目	中久公園	34.9622859	135.7122665
19-3	京都市南区久世上久世町618	戸倉方	34.9645952	135.7163707
19-4	京都市南区久世川原町130-2	八木方 ガレージ	34.9634203	135.7211879
19-5	京都市南区久世上久世町262	上久世集会所	34.9646373	135.7147097
19-6	京都市南区久世中久世町三丁目	中久世公園	34.9616751	135.7161856
19-7	京都市南区久世中久世町二丁目109	小野方	34.9603883	135.7139445
19-8	京都市南区久世高田町257-78	桂ガーデンハイツ	34.9647631	135.7070064
19-9	京都市南区久世上久世町136-2	西久世公園	34.9657845	135.7118717
