code	address	place	lat	lon
1-1	京都府宇治市道荒槇26-11	荒槇北児童遊園	34.89659643617582	135.8073696607315
1-2	京都府宇治市宇治山本27-1	都倉病院北側フェンス	34.89554797247273	135.8118017036534
1-3	京都府宇治市道大垣内53-1	関西電力送配電株式会社道変電所	34.89552570544741	135.80909258673304
1-4	京都府宇治市宇治東内45-26	源氏物語ミュージアム	34.89429406454822	135.81051609703667
1-5	京都府宇治市宇治又振13-3	久保氏方	34.89296475269188	135.80956051231888
2-1	京都府宇治市宇治宇文字2-18	京都中央信用金庫　宇治支店	34.88926614365454	135.8006324629998
2-2	京都府宇治市宇治戸ノ内1-2	ＪＲ宇治駅南側フェンス	34.890259279975986	135.80133742950437
2-3	京都府宇治市宇治戸ノ内2-5	ＪＲ宇治駅前北側広場	34.89069964400968	135.8005992197368
2-4	京都府宇治市宇治戸ノ内5	ユニチカ（株）宇治事業所（正門東側）	34.89080739920257	135.79803931417237
2-5	京都府宇治市宇治矢落64-1	宇治中学校（正門北側フェンス）	34.88753351549892	135.7970562630233
2-6	京都府宇治市宇治矢落64-1	宇治中学校（南側塀）	34.8868909957206	135.79629132171578
2-7	京都府宇治市天神台一丁目2-27	天神台第１児童公園	34.8873550873977	135.7929376062074
2-8	京都府宇治市宇治天神38-4	天神遊園	34.88831270584277	135.79170500211578
3-1	京都府宇治市宇治妙楽69-6	NTT西日本宇治別館	34.88880733329037	135.80308301247192
3-2	京都府宇治市宇治善法37-4	コミュニティワークうじ館	34.88434113305936	135.80398403633424
3-3	京都府宇治市宇治塔川102	菟道小学校	34.88631973900898	135.80831976349538
3-4	京都府宇治市宇治妙楽128-1	道ふれあいセンター	34.889484497579375	135.80544686733103
3-5	京都府宇治市宇治善法116-2	善法保育所	34.88660231316905	135.80554172484392
3-6	京都府宇治市宇治蓮華72	縣神社	34.888341925728845	135.8059287352944
3-7	京都府宇治市宇治塔川122-25	塔ノ川児童遊園	34.887581930597506	135.80691476100404
3-8	京都府宇治市宇治妙楽194-1	松本氏方	34.88800385337292	135.80494435860177
4-1	京都府宇治市宇治下居13-1	宇治市職員会館	34.88489071436942	135.8012503533324
4-2	京都府宇治市宇治弐番32-3	西町公園	34.88536552263402	135.79614674771014
4-3	京都府宇治市宇治弐番70-1	井上氏方	34.88379239785904	135.79526887574085
4-4	京都府宇治市宇治琵琶16-3	宇治琵琶児童遊園	34.884608086134826	135.79812052461432
4-5	京都府宇治市宇治琵琶33	宇治市役所北側ATM横	34.88541446849147	135.8003231512534
4-6	京都府宇治市宇治琵琶33	宇治市役所	34.883661479359546	135.80066065014174
4-7	京都府宇治市宇治琵琶49-2	北村氏方	34.88224341909941	135.80076899441852
4-8	京都府宇治市宇治琵琶33	宇治市役所西側	34.88410164844464	135.79984718113514
5-1	京都府宇治市宇治大谷5-57	琵琶台第４児童公園	34.8778036487146	135.7971541926503
5-2	京都府宇治市神明宮西12	平野氏方	34.879071899938864	135.78925800369495
5-3	京都府宇治市神明宮西35	神明宮西市営住宅	34.878498372887016	135.79157800306362
5-4	京都府宇治市宇治野神71-29	大谷児童遊園	34.880552451996	135.79561193057944
5-5	京都府宇治市神明宮東107-2	庄田氏方	34.881194976871306	135.79343234911778
5-6	京都府宇治市神明宮東88	城南荘児童公園	34.87896117839183	135.7936147572265
5-7	京都府宇治市神明宮東88	神明宮東市営住宅駐車場	34.878676314847944	135.79256399383686
5-8	京都府宇治市広野町小根尾138-228	小根尾児童公園	34.876733183374924	135.7960360750219
5-9	京都府宇治市神明宮西9-25	宮西第２児童遊園	34.87811864458207	135.78922996985693
6-1	京都府宇治市白川川上り谷45-3	服部氏所有畑	34.87636803002404	135.81109163157916
6-2	京都府宇治市白川川上り谷15	服部氏方	34.87918366504714	135.8117970749974
6-3	京都府宇治市白川宮ノ前3-5	市有地（白川集会所跡）	34.877736223764465	135.81233845732604
7-1	京都府宇治市槇島町北内156他	槇島公園	34.89939347186664	135.79795289665893
7-2	京都府宇治市槇島町月夜6-4	月夜児童遊園	34.897415450756604	135.7938429448224
7-3	京都府宇治市槇島町薗場78	市道十一外線防護柵	34.89624878453384	135.7997437373611
7-4	京都府宇治市槇島町薗場41	福山氏方	34.898280375859756	135.7950948358914
7-5	京都府宇治市槇島町外1-21	宇治高齢者事業団	34.896015934547826	135.80111015673558
7-6	京都府宇治市槇島町北内24-2	槇島集会所	34.90022862605625	135.79948730969426
8-1	京都府宇治市槇島町一ノ坪134	多羅尾氏方	34.901759789143775	135.78416601565786
8-2	京都府宇治市槇島町大川原27-5	槇島コミュニティセンター	34.90543327866017	135.78339526258225
8-3	京都府宇治市槇島町一ノ坪321-10	一ノ坪児童遊園	34.90303801075768	135.7801173643432
8-4	京都府宇治市槇島町南落合117	市道槇島町200号線防護柵	34.90676307255062	135.77864994283783
8-5	京都府宇治市槇島町南落合5-24	南落合児童遊園	34.903610127128786	135.78019627253778
8-6	京都府宇治市小倉町春日森77-3	春日森第３遊園	34.900290787518244	135.78227109341512
9-1	京都府宇治市宇治半白54	半白第２児童遊園	34.89396633116062	135.7899735781863
9-2	京都府宇治市宇治半白81-4	半白第１児童遊園	34.894619989542385	135.7891485527923
9-3	京都府宇治市小倉町久保72-2	小山氏所有地	34.89612248238981	135.78336667726907
9-4	京都府宇治市小倉町寺内88	木下氏方	34.895966250867566	135.78487343785
9-5	京都府宇治市小倉町寺内91	小倉公民館	34.89775819498931	135.78485540220538
9-6	京都府宇治市小倉町天王38	池本氏方	34.89438102052733	135.78520924587906
9-7	京都府宇治市宇治半白73-4	半白児童公園	34.89556011587859	135.7899951651939
9-8	京都府宇治市槇島町外50-23	寺内児童遊園	34.89984104325948	135.7852765886413
9-9	京都府宇治市小倉町神楽田5-1	近鉄小倉駅東自転車等駐車場	34.89437405128236	135.78251879268174
9-10	京都府宇治市小倉町神楽田29-5	神楽田児童遊園	34.89240524957647	135.78196945750014
10-1	京都府宇治市伊勢田町井尻3	伊勢田小学校（正門南側）	34.88363562499072	135.77301718597892
10-2	京都府宇治市伊勢田町毛語60	伊勢田集会所	34.88360037782184	135.77412761713498
10-3	京都府宇治市伊勢田町井尻3	伊勢田小学校（北側）	34.885199395121795	135.77322722568906
10-4	京都府宇治市伊勢田町中ノ田37-177	中ノ田児童遊園	34.88643437565083	135.7701479748247
10-5	京都府宇治市伊勢田町名木一丁目1-281	名木第１児童公園	34.882262098540814	135.76971018876748
10-6	京都府宇治市伊勢田町名木二丁目1-57	名木第２児童公園	34.884404096083024	135.76647129069977
10-7	京都府宇治市伊勢田町名木一丁目1-136	名木第３児童公園	34.88298818021251	135.76740746926012
10-8	京都府宇治市伊勢田町名木二丁目1-250	防火水槽（北側）	34.885264853041846	135.76905907714308
10-9	京都府宇治市伊勢田町若林48-2	北川半兵衛商店所有地	34.88466533478123	135.77606423662633
10-10	京都府宇治市伊勢田町若林65の一部	なかよしひろば	34.88565948625812	135.77715960321677
11-1	京都府宇治市開町30	開第１児童公園（北側）	34.880486559410436	135.78194830733406
11-2	京都府宇治市羽拍子町46-7	羽拍子児童遊園	34.88290353242043	135.78182990676004
11-3	京都府宇治市開町51-47	開第２遊園	34.88078563071119	135.78553893344935
11-4	京都府宇治市広野町桐生谷10-7	桐生谷遊園	34.87859210308736	135.78654879031012
11-5	京都府宇治市開町30	開第１児童公園（西側）	34.88036889032142	135.78067948998952
11-6	京都府宇治市開町77-87	開第２公園	34.8793362643607	135.7853371499327
11-7	京都府宇治市広野町桐生谷36-1	平野氏所有地	34.87731724280937	135.78600658458157
12-1	京都府宇治市広野町東裏31-13	東裏第２遊園	34.876800133150255	135.7806683707361
12-2	京都府宇治市広野町西裏73-7	近鉄大久保駅前自動車駐車場	34.87476503138339	135.77807358919225
12-3	京都府宇治市広野町寺山58-118	広野寺山集会所	34.869325863777014	135.78605879364375
12-4	京都府宇治市広野町西裏94-1	大久保分団消防団器具庫	34.87401356237682	135.77940760018018
12-5	京都府宇治市広野町東裏13	竹村氏方	34.87829103482568	135.77924225101228
12-6	京都府宇治市広野町東裏73-3	ＪＲ新田駅前自転車等駐車場	34.87484028790357	135.78063165277166
12-7	京都府宇治市寺山台二丁目9-1	尖山児童公園	34.86769551867753	135.78958417258247
13-1	京都府宇治市木幡東中12-1	木幡児童公園		
13-2	京都府宇治市木幡東中23	正和電工株式会社	34.92596559872235	135.7998538653641
13-3	京都府宇治市木幡北山畑31-8	北山畑第２児童遊園	34.92356667706724	135.80105393770225
13-4	京都府宇治市木幡東中18-9	木幡緑道		
13-5	京都府宇治市木幡南山畑22-4	南山畑第２遊園	34.92248583628772	135.80181740907096
13-6	京都府宇治市木幡大瀬戸19-8	木幡３３４号線木幡駅前自転車等駐車場西側	34.9245062685198	135.79874906685887
13-7	京都府宇治市木幡檜尾47-3	桧尾児童公園	34.92478202376493	135.80217059472926
14-1	京都府宇治市木幡南端37	山田墓地	34.919378882875215	135.80051282725935
14-2	京都府宇治市木幡南山12-136	南山第２児童公園	34.92035302015775	135.80271376786322
14-3	京都府宇治市五ケ庄三番割27	宇治小学校（北東側）	34.916374668959385	135.8035440328335
14-4	京都府宇治市五ケ庄三番割27	宇治小学校（南側）	34.91554248766769	135.8031572968757
14-5	京都府宇治市五ケ庄芝ノ東20-67	芝ノ東第２遊園	34.917673621196805	135.8045563690171
14-6	京都府宇治市五ケ庄芝ノ東54	宇治病院（西側）	34.91704101386161	135.80173110041227
14-7	京都府宇治市五ケ庄芝ノ東54	宇治病院	34.917589448654674	135.8014998016813
15-1	京都府宇治市道池山24	ナカガワ胡粉株式会社	34.89716700929821	135.81568478836132
15-2	京都府宇治市道大垣内11	市道森本山本線ガードレール	34.89658770436496	135.81283076032548
15-3	京都府宇治市道河原5-1	道河原児童公園	34.90001319232645	135.81346420733058
15-4	京都府宇治市道河原7-1	道集会所	34.89928937421701	135.8136972712679
15-5	京都府宇治市道門前31-12	門ノ前児童遊園	34.89746529548579	135.81308533213826
15-6	京都府宇治市道門前28-4	関西電力㈱余水路フェンス	34.89815086529408	135.8128056196987
16-1	京都府宇治市志津川南組16-3	志津川集会所	34.88913403119934	135.82643154209669
16-2	京都府宇治市志津川西組98-1東側	宇治志津川線ガードレール	34.886823058804694	135.82392787025782
16-3	京都府宇治市志津川東組10	安井氏方	34.89094225204782	135.82710086245336
16-4	京都府宇治市志津川南組1	林氏方	34.889805366623335	135.82682902688708
17-1	京都府宇治市西笠取石原22	笠取小学校東側ガードレール	34.93715694709903	135.8555157753637
17-2	京都府宇治市西笠取下荘川西38	渡辺氏方	34.92356613287694	135.85560584243336
17-3	京都府宇治市西笠取辻出川西38-3	丹下氏所有地	34.932700206787025	135.85603157187106
17-4	京都府宇治市東笠取平出72	本田氏方	34.93984442786704	135.8684249310018
18-1	京都府宇治市池尾西組57	大森氏方	34.9018710253096	135.85610006076698
18-2	京都府宇治市炭山久田52	渋谷氏方	34.916166144942814	135.83560083412738
18-3	京都府宇治市炭山堂ノ元21-2地先	堂の元橋北側ガードレール	34.92075271652554	135.83486596096515
18-4	京都府宇治市二尾西縄手1	藤田氏方	34.911545202036315	135.86002709169495
19-1	京都府宇治市大久保町大竹20-38	大竹緑地	34.86919191808019	135.77556145424998
19-2	京都府宇治市大久保町山ノ内1-1	旦椋神社所有駐車場	34.87187714099099	135.77596716903045
19-3	京都府宇治市大久保町上ノ山53-2	南大久保集会所	34.870504953566	135.77612209105118
19-4	京都府宇治市大久保町山ノ内3	大久保青少年センター	34.871667186266556	135.7743982417036
19-5	京都府宇治市大久保町山ノ内3-1	大久保旦椋市営住宅	34.8713970395385	135.77314036547716
19-6	京都府宇治市大久保町山ノ内68	武本氏方	34.870781070218065	135.77085115350857
19-7	京都府宇治市大久保町山ノ内77	奥氏方	34.87024237995681	135.77190079938796
19-8	京都府宇治市大久保町南ノ口13-8の一部	南ノ口児童遊園	34.8700164721909	135.77300374306006
19-9	京都府宇治市大久保町上ノ山42-3	南宇治コミュニティセンター	34.871736280345516	135.77752081196027
20-1	京都府宇治市伊勢田町大谷18	伊勢田大谷第３遊園	34.88411224714879	135.78038781190455
20-2	京都府宇治市小倉町西畑1-4	小倉小学校	34.88629590718225	135.78145709479736
20-3	京都府宇治市小倉町西畑13	小倉双葉園保育所	34.88827358447905	135.78249082266703
20-4	京都府宇治市小倉町西山80	小倉共同墓地	34.88921941802232	135.78259419240567
20-5	京都府宇治市伊勢田町大谷4	伊勢田ガレージ	34.883703284023454	135.7785292575902
20-6	京都府宇治市伊勢田町大谷57	今村氏方	34.88583512810392	135.78020113845275
21-1	京都府宇治市六地蔵奈良町35-10	奈良町児童遊園	34.93259330992	135.79736004214513
21-2	京都府宇治市六地蔵奈良町51	山村ガレージ	34.935666306460696	135.80321816312397
21-3	京都府宇治市六地蔵柿ノ木町27	六地蔵南集会所	34.93076806927837	135.7962965570733
21-4	京都府宇治市木幡河原54-7	河原公園	34.93103059149102	135.79755451123563
21-5	京都府宇治市木幡河原5-5	河原青少年センター	34.932022318350526	135.79771386257332
22-1	京都府宇治市宇治里尻36-11	里尻公園	34.89213012096744	135.80233930588966
22-2	京都府宇治市宇治里尻32	ユニチカ（株）宇治事業所（取水施設南側）	34.894463139539866	135.8021935297464
22-3	京都府宇治市宇治戸ノ内5	ユニチカ（株）宇治事業所（守衛所東側）	34.89134432544186	135.79925216968175
22-4	京都府宇治市宇治里尻76	宇治橋西詰交差点北西柵	34.892641674721716	135.80553268166568
22-5	京都府宇治市宇治里尻2-18地先	市有水路	34.891905212291384	135.80382794478797
23-1	京都府宇治市広野町尖山66	とんがり山南公園	34.8660367660611	135.79686340132076
23-2	京都府宇治市広野町中島1	大久保小学校（北側）	34.87421647620045	135.7841469011051
23-3	京都府宇治市広野町中島1	大久保小学校（南西側）	34.8735574081191	135.78288353046636
23-4	京都府宇治市広野町尖山34-2	とんがり山中央公園	34.86820280682404	135.79407581830017
23-5	京都府宇治市広野町丸山10	府立宇治支援学校　正門東側フェンス	34.876295160202936	135.78590398227814
23-6	京都府宇治市広野町丸山10	府立宇治支援学校　東側フェンス	34.87614562721815	135.78705319430412
23-7	京都府宇治市広野町宮谷2-3	宮谷児童公園	34.872303703139956	135.79050675833952
23-8	京都府宇治市広野町宮谷56-62	宮谷児童遊園	34.872628491060674	135.7863642214307
23-9	京都府宇治市広野町尖山7-18	とんがり山北公園	34.870603316271286	135.79348721049246
24-1	京都府宇治市小倉町神楽田33-27	近鉄小倉駅西第１自転車等駐車場	34.8928458611679	135.78132531934983
24-2	京都府宇治市小倉町西浦1-1東側	小倉33号線ガードレール	34.89728694864354	135.78250358628875
24-3	京都府宇治市小倉町西浦10-11	西浦第１児童遊園	34.89700154511902	135.78124586242333
24-4	京都府宇治市小倉町西浦26	西浦第２児童遊園	34.8960955759344	135.7818100202608
24-5	京都府宇治市小倉町南堀池105	西小倉コミュニティセンター	34.8948376190475	135.7789628227535
25-1	京都府宇治市五ケ庄池ノ浦36-1	東宇治中学校	34.912216739270804	135.80275802769037
25-2	京都府宇治市五ケ庄官有地	京都大学宇治地区（南東側）	34.907956785958774	135.80379809046104
25-3	京都府宇治市五ケ庄官有地	京都大学宇治地区（正門北側）	34.91078435596711	135.80322400204673
26-1	京都府宇治市道荒槇1-50	あべじゅん婦人科	34.89657927303651	135.80957587479804
26-2	京都府宇治市道藪里28-6	藪里第２児童遊園	34.901786006369434	135.8090060634177
26-3	京都府宇治市道谷下り31	立命館宇治中学校・高等学校（硬式野球部練習場）	34.89957481726932	135.80908475981488
26-4	京都府宇治市道谷下り45	府営三室戸団地	34.89845224355686	135.80845635249392
26-5	京都府宇治市谷下り62-1	京阪三室戸駅前自転車等駐車場		
26-6	京都府宇治市丸山1-40	谷口ガレージ		
26-7	京都府宇治市道田中6-1	関西電力㈱余水路フェンス	34.89832697432412	135.80719702168642
26-8	京都府宇治市道森本1-11	森本加圧ポンプ場	34.90323132762332	135.80764625121975
26-9	京都府宇治市道谷下り22-3	谷下り第２児童遊園	34.89844240421945	135.8105449020059
27-1	京都府宇治市木幡赤塚4	木幡小学校（裏門西側）	34.930469517695855	135.80173705453376
27-2	京都府宇治市木幡赤塚4	木幡小学校（正門西側）	34.92992146503122	135.80211886703583
27-3	京都府宇治市木幡金草原36-2	金草原第３児童遊園	34.927170495661855	135.80576841429627
27-4	京都府宇治市木幡正中44-8地先	東中畑山田線ガードレール	34.9280936131483	135.80004881839125
27-5	京都府宇治市木幡金草原16-5	金草原第２児童遊園	34.92819618206496	135.80431875394285
27-6	京都府宇治市木幡赤塚49-4	御蔵山集会所	34.93260542347583	135.8049799350051
28-1	京都府宇治市大久保町旦椋25	西大久保小学校（正門北側）	34.87231167962029	135.76709159252414
28-2	京都府宇治市大久保町旦椋25	西大久保小学校（西側北）	34.87214065938908	135.7658327186046
28-3	京都府宇治市大久保町旦椋25	大久保保育所	34.87109930581278	135.767122609584
28-4	京都府宇治市大久保町旦椋25	西大久保小学校（西側南）	34.871012163041414	135.76586289145058
28-5	京都府宇治市大久保町田原1-4	日本ジフィー食品株式会社	34.8734617363139	135.76949772544583
29-1	京都府宇治市五ケ庄日皆田25-18	日皆田児童公園	34.90644052252345	135.80132038155514
29-2	京都府宇治市五ケ庄戸ノ内52－1	五ケ庄戸ノ内第２遊園	34.90623873229504	135.79995833676819
29-3	京都府宇治市五ケ庄岡本24-1	岡本児童遊園	34.907497831808364	135.80030314525857
29-4	京都府宇治市五ケ庄戸ノ内15-1	南部小学校（西側）	34.90618006505866	135.7979175174078
29-5	京都府宇治市五ケ庄戸ノ内50-18	かおり幼稚園	34.905281333167146	135.80127560750373
29-6	京都府宇治市五ケ庄福角1-1	五ケ庄福角市営住宅	34.904124335701766	135.80502199869633
29-7	京都府宇治市五ケ庄福角27	窪田氏方	34.90550327040446	135.80452834412674
29-8	京都府宇治市道平町52-17	平町遊園	34.90380078522858	135.80375525590918
30-1	京都府宇治市五ケ庄大林10-3、7-5	大林公園	34.91689389185694	135.7979225737823
30-2	京都府宇治市五ケ庄北ノ庄7-6	北ノ庄児童公園	34.91940489844946	135.79583707335337
30-3	京都府宇治市五ケ庄寺界道37-3	岡屋小学校	34.916859174240535	135.79629543801607
30-4	京都府宇治市五ケ庄西川原21-28	西川原児童公園	34.919372155856806	135.79202739551204
30-5	京都府宇治市五ケ庄野添57-2	五ケ庄野添市営住宅	34.91593071750703	135.79701033980444
31-1	京都府宇治市羽戸山二丁目1-167	羽戸山第３児童公園	34.90775799977482	135.8153712281375
31-2	京都府宇治市五ケ庄二番割44	服部氏所有地（駐車場）	34.90908579282616	135.80690999524953
31-3	京都府宇治市五ケ庄三番割25-29	黄檗公園市民プール	34.91194854342902	135.80814177372406
31-4	京都府宇治市五ケ庄三番割25-31	黄檗公園体育館南側駐車場横	34.911830904033565	135.81277141155914
31-5	京都府宇治市五ケ庄新開18-4	ＪＲ黄檗駅前第２自転車等駐車場	34.91273937901319	135.80434262199412
31-6	京都府宇治市五ケ庄平野11-7	平野南児童遊園	34.90988981270565	135.8052556024179
31-7	京都府宇治市五ケ庄二番割4-1	黄檗ふれあい公園運動場	34.909769025960266	135.80867171377287
31-8	京都府宇治市羽戸山二丁目1-79	道公園	34.905637436627956	135.81216582384548
31-9	京都府宇治市羽戸山二丁目1-82	羽戸山第２児童公園	34.90727987212729	135.81330640523922
31-10	京都府宇治市道東隼上り5-142	道北集会所	34.906653951145266	135.810118884377
31-11	京都府宇治市道西隼上り1-31	西隼上り北児童遊園	34.90556307074856	135.8070065958514
32-1	京都府宇治市伊勢田町北山7-32	伊勢田町７６号線ガードレール	34.887383301500385	135.77733510532175
32-2	京都府宇治市伊勢田町北山20-1	北山公園	34.88668075520149	135.77989158971795
32-3	京都府宇治市小倉町南浦41-4	京都府小倉職員住宅	34.88880369841611	135.77518532290452
32-4	京都府宇治市小倉町南浦40-1	南小倉小学校	34.89099096225243	135.77470234553303
32-5	京都府宇治市小倉町山際4-23、6-2一部、7-2	山際児童遊園	34.89104604884811	135.7812493600778
32-6	京都府宇治市小倉町西山25-10	西山第２遊園	34.889351626812676	135.7806455236234
33-1	京都府宇治市伊勢田町砂田40-5	砂田第３児童遊園	34.89083801241661	135.76864550181148
33-2	京都府宇治市伊勢田町砂田6-77	砂田第２児童公園	34.88929054302463	135.76883981742276
33-3	京都府宇治市伊勢田町砂田90	府営住宅砂田団地	34.88938945142465	135.76580963095375
33-4	京都府宇治市伊勢田町遊田12-3	遊田第１児童公園	34.888917124812934	135.77187276738934
33-5	京都府宇治市伊勢田町遊田12-5	遊田第２児童公園	34.88862317345446	135.77320217353184
33-6	京都府宇治市伊勢田町遊田12-11	遊田三角児童遊園	34.8903841526304	135.7730057077808
33-7	京都府宇治市伊勢田町遊田69	西小倉小学校	34.89211453626426	135.77277192176126
33-8	京都府宇治市安田町大納言31-42	大納言児童遊園	34.886754165469036	135.76113244148627
33-9	京都府宇治市伊勢田町南遊田24-2	南遊田児童公園	34.894823217563946	135.77340317925496
33-10	京都府宇治市小倉町南堀池38-17	南堀池西児童遊園	34.89289627451205	135.7742927597484
33-11	京都府宇治市伊勢田町砂田74-9	砂田第３児童公園	34.887802700746626	135.76850201382226
34-1	京都府宇治市木幡御蔵山39-4	御蔵山小学校	34.92968937578979	135.80966596134377
34-2	京都府宇治市木幡御蔵山39-1128	御蔵山第４児童遊園	34.932459499618886	135.8104659345415
34-3	京都府宇治市木幡御蔵山39-847	市有地	34.9309567860075	135.81027409560707
34-4	京都府宇治市木幡平尾28-1043	平尾北遊園	34.93712201115119	135.80881033717972
34-5	京都府宇治市木幡平尾27	平尾第３公園	34.93637772537558	135.80703041784164
34-6	京都府宇治市木幡御蔵山39-752	御蔵山児童公園	34.93210998084322	135.80800470547874
34-7	京都府宇治市木幡平尾27	平尾第４公園	34.934952875653664	135.81040320849095
34-8	京都府宇治市木幡平尾27-120	平尾第２公園	34.93294318049327	135.81173106564057
34-9	京都府宇治市木幡平尾27-90	平尾第３遊園	34.930627530986634	135.81269511817393
34-10	京都府宇治市木幡平尾27-112	平尾第４遊園	34.93445375788099	135.81201219810367
34-11	京都府宇治市木幡御蔵山39-1078	御蔵山緑地	34.928208378251405	135.80902705002882
35-1	京都府宇治市神明石塚32	神明小学校	34.881774118077644	135.79033617885466
35-2	京都府宇治市神明石塚54-7	神明石塚児童公園	34.884045327148364	135.78399152931667
35-3	京都府宇治市神明石塚66	心華寺	34.88231899636438	135.78578690977653
35-4	京都府宇治市神明宮北99-3	宮北ガレージ	34.88147884818775	135.78821307440518
35-5	京都府宇治市神明宮北22-1	神明宮北児童遊園	34.88073943988746	135.78831459054595
35-6	京都府宇治市神明宮北50-42	神明宮北第２児童遊園	34.87948818419741	135.78805436717482
36-1	京都府宇治市伊勢田町蔭田1-119他	蔭田緑地	34.88179539416014	135.76616828690806
36-2	京都府宇治市伊勢田町新中ノ荒21-7	新中ノ荒児童遊園	34.880556687991565	135.77075276340483
36-3	京都府宇治市広野町新成田100-234	緑ケ原児童公園	34.88006331131013	135.76868809518206
36-4	京都府宇治市広野町新成田42-3	新成田第３緑地	34.8789999370583	135.77030746777535
36-5	京都府宇治市大久保町西ノ端1	㈱オートワークス京都	34.874645602466124	135.77023840408057
36-6	京都府宇治市広野町新成田90-3	成田緑道	34.878213751649476	135.76706981847255
36-7	京都府宇治市広野町成田1-45	成田公園	34.87818095789292	135.76913037546865
37-1	京都府宇治市小倉町蓮池103-9	蓮池第３児童遊園	34.89935381416629	135.77969818375897
37-2	京都府宇治市小倉町蓮池110-11	蓮池北児童遊園	34.89842596396917	135.77770374080066
37-3	京都府宇治市小倉町蓮池134-4	蓮池児童公園	34.89851666446874	135.78033690774737
37-4	京都府宇治市小倉町南堀池83-72	主排３号親水緑道（東側）	34.895260370345156	135.77731226852836
37-5	京都府宇治市小倉町蓮池175	蓮池河川敷児童遊園	34.89617016918429	135.7782250385263
37-6	京都府宇治市小倉町南堀池41	主排３号親水緑道（西側）	34.89368797394322	135.77377208644424
37-7	京都府宇治市小倉町堀池23-18	東堀池集会所	34.89634991170765	135.77696263423306
37-8	京都府宇治市小倉町堀池39-15	堀池第１児童公園	34.89693452353501	135.77597837851482
37-9	京都府宇治市小倉町堀池72	北小倉小学校	34.8992368003477	135.77573883528123
38-1	京都府宇治市槇島町大町13	ＪＡ京都やましろ中宇治支店	34.901277852019675	135.78946254268124
38-2	京都府宇治市槇島町十一42	京都銀行槇島文書センター	34.90860692324344	135.78395128411154
38-3	京都府宇治市槇島町中川原146-2	宇治おぐら住宅	34.906313123830756	135.7845200025987
38-4	京都府宇治市槇島町吹前35	槇島小学校（南側）	34.902422304079046	135.78970502571434
38-5	京都府宇治市槇島町吹前37-9	槇島吹前市営住宅	34.90363043663961	135.79098168301041
38-6	京都府宇治市槇島町吹前37	吹前児童公園	34.90422457756288	135.79073110895393
38-7	京都府宇治市槇島町吹前130-38	吹前児童遊園	34.90451541127118	135.79408663390348
39-1	京都府宇治市伊勢田町中山3	北川半兵衛商店	34.88287870021609	135.77518851240427
39-2	京都府宇治市伊勢田町中山50-3	近鉄伊勢田駅前自転車等駐車場	34.882476611533214	135.77892730914385
39-3	京都府宇治市伊勢田町南山21-1	西宇治中学校	34.88073782093948	135.77591561704085
39-4	京都府宇治市伊勢田町中山13-1	北川氏所有地	34.881493066988334	135.77603972031386
40-1	京都府宇治市小倉町南堀池46-2	南堀池児童遊園	34.89312899313649	135.7758191247307
40-2	京都府宇治市小倉町南堀池43-44	南堀池北児童遊園	34.89356884543631	135.7748833618532
40-3	京都府宇治市小倉町南堀池52-3	西小倉集会所	34.892309017546836	135.77720086228138
40-4	京都府宇治市小倉町南浦108-1	大成町児童遊園	34.891389964194396	135.77860241113865
41-1	京都府宇治市大久保町旦椋65-1	府営西大久保団地１３棟北側（駐車場）	34.872984897510435	135.76498696035242
41-2	京都府宇治市大久保町旦椋76-1	府営西大久保団地１７棟西側（公園）	34.87187496158283	135.76335183179256
41-3	京都府宇治市大久保町旦椋76-1	府営西大久保団地１９棟南側（公園）	34.871197333086066	135.76375376435405
41-4	京都府宇治市大久保町旦椋131-8	府営西大久保団地１棟北側（駐車場）	34.87342850369734	135.7625553795074
41-5	京都府宇治市大久保町平盛91-1	府営西大久保団地３９棟東側（公園）	34.86982234600567	135.76577138501878
41-6	京都府宇治市大久保町平盛31-5	南宇治中学校（正門横）	34.87047995200354	135.76647032332738
41-7	京都府宇治市大久保町平盛31-5	南宇治中学校（東側）	34.869749675159554	135.76715500811306
41-8	京都府宇治市大久保町平盛91-3	平盛小学校（正門横）	34.8704973671285	135.76436288465857
41-9	京都府宇治市大久保町平盛91-3	平盛小学校（南側）	34.86967379283141	135.76435235910628
42-1	京都府宇治市広野町大開35	大開小学校	34.874826532090395	135.7929837415744
42-2	京都府宇治市広野町大開132	城南の丘グラウンド	34.87621825731923	135.79448432985657
42-3	京都府宇治市広野町丸山55-11	広野丸山南児童遊園		
42-4	京都府宇治市広野町尖山2-17	奥広野第１児童公園	34.87363291897498	135.79731376364404
42-5	京都府宇治市広野町尖山2-75	尖山西児童遊園	34.87349697533572	135.7948786079305
42-6	京都府宇治市広野町大開9	大開第２公園		
43-1	京都府宇治市道岡谷16-2	三室戸小学校	34.89685269924607	135.8186989240567
43-2	京都府宇治市明星町一丁目5-34	明星第２緑地	34.89579301514914	135.81658676912255
43-3	京都府宇治市明星町一丁目23-2	明星第４児童公園	34.896191022700584	135.81571342203287
43-4	京都府宇治市明星町二丁目4-13	明星第１児童公園	34.89395333304804	135.81785875799753
43-5	京都府宇治市明星町二丁目9-52	明星第３児童公園	34.89479951724514	135.81962173670584
43-6	京都府宇治市明星町三丁目11-124	明星第２児童公園	34.8939138473285	135.82060592089712
43-7	京都府宇治市明星町一丁目9-87	明星集会所	34.89592214547322	135.81781464285618
44-1	京都府宇治市木幡熊小路19-144	西木幡集会所	34.92259021949474	135.79207026500032
44-2	京都府宇治市木幡熊小路19-225	市道西田熊小路線グリーンベルト	34.92571566410907	135.7916813267412
44-3	京都府宇治市木幡内畑34	木幡中学校	34.92362190309021	135.79587929630276
44-4	京都府宇治市木幡内畑34-7	木幡公民館	34.925282192342635	135.795081769923
44-5	京都府宇治市木幡西浦6-2、6-7	木幡西浦第４遊園	34.92305324697611	135.79713620849822
44-6	京都府宇治市木幡西中5	関西電力送配電株式会社木幡変電所	34.926812660863035	135.7971548140784
44-7	京都府宇治市木幡西中31-6	西中児童公園	34.926407983838956	135.79400739846253
44-8	京都府宇治市木幡西浦31-3	木幡西浦児童遊園	34.92135772837961	135.79610904839433
44-9	京都府宇治市木幡熊小路19-179	熊小路児童公園	34.921512982518074	135.79128147610473
44-10	京都府宇治市木幡熊小路38-107、38-114	熊小路東児童公園	34.92212009673799	135.79309570282913
44-11	京都府宇治市木幡内畑18-5	内畑児童遊園	34.924568646558235	135.79633543658582
45-1	京都府宇治市槇島町十六38-8	十六児童遊園	34.910243360344	135.78277770136458
45-2	京都府宇治市槇島町千足27	笠井氏方	34.91338340138119	135.78802366225426
45-3	京都府宇治市槇島町千足80	京都文教大学・短期大学（正門南側）		
45-4	京都府宇治市槇島町千足80	京都文教大学・短期大学（南側）	34.913469420560425	135.78590612544596
45-5	京都府宇治市槇島町本屋敷35-1	槇島中学校		
45-6	京都府宇治市槇島町本屋敷40-1	グリーンタウン槇島第１集会所	34.915461932400454	135.77794620340956
45-7	京都府宇治市槇島町本屋敷40-1	グリーンタウン槇島２１２号棟前公園	34.914854294268586	135.77592972226532
45-8	京都府宇治市槇島町本屋敷40-2	北槇島小学校	34.91407926818623	135.77994508604317
45-9	京都府宇治市槇島町落合102	落合第８遊園	34.909235624921706	135.77349330584255
45-10	京都府宇治市槇島町落合97	槇島落合児童公園	34.910228046270085	135.77392076223796
45-11	京都府宇治市槇島町落合230	西目川集会所	34.91330951221403	135.7712744832195
46-1	京都府宇治市宇治野神1-205	野神児童公園	34.88381105010979	135.79658102410042
46-2	京都府宇治市宇治琵琶63-3	菟道第二小学校（西側）	34.88206897516715	135.7981884124125
46-3	京都府宇治市折居台一丁目1	宇治市文化センター（北側階段横）	34.879780953635866	135.80393115830412
46-4	京都府宇治市折居台一丁目1	宇治市文化センター（業務用駐車場横）	34.878404017119095	135.8051962057187
46-5	京都府宇治市折居台一丁目1	東山公園	34.8784173193791	135.8073880016804
46-6	京都府宇治市折居台二丁目1-122	折居台北集会所	34.881077692260774	135.80408743974485
46-7	京都府宇治市折居台三丁目2-192	折居台第３児童遊園（東側ガードレール）	34.88264606406268	135.8060754359508
46-8	京都府宇治市琵琶台一丁目14-1	琵琶台第３児童公園	34.88071474162585	135.79938737777405
46-9	京都府宇治市琵琶台一丁目8-14	琵琶台第５児童公園	34.87851658796881	135.79860987312668
46-10	京都府宇治市琵琶台三丁目9-7	琵琶台第２児童公園	34.87974865918386	135.7973509875844
46-11	京都府宇治市琵琶台三丁目12-1	琵琶台第１児童公園	34.881287383127706	135.79672401765836
46-12	京都府宇治市琵琶台一丁目2-23	琵琶台遊園	34.88026666779605	135.8000927431492
47-1	京都府宇治市宇治蛇塚1-8	蛇塚第２児童遊園	34.88477473086238	135.79180176102093
47-2	京都府宇治市南陵町三丁目1-74	南陵第２児童遊園	34.885784921883356	135.78731365740688
47-3	京都府宇治市南陵町一丁目1-351	ＪＲ小倉駅南自転車等駐車場	34.88871018067363	135.78618354637422
47-4	京都府宇治市南陵町一丁目24	市道南陵２４号線防護柵	34.88565007213957	135.7823573002592
47-5	京都府宇治市南陵町三丁目1-73	南陵第２児童公園	34.88574204243961	135.78842416538063
47-6	京都府宇治市南陵町五丁目1-79	南陵第１児童公園	34.88742323798016	135.78980895077905
48-1	京都府宇治市平尾台四丁目11-6	平尾台第３児童公園	34.92519041272232	135.81558147764233
48-2	京都府宇治市木幡須留5-76	堂ノ川調整池	34.922469083220456	135.81301241817636
48-3	京都府宇治市木幡平尾4-2	京都医療少年院	34.92645289406196	135.81134483653338
48-4	京都府宇治市木幡平尾4-177	平尾児童公園	34.92807164797704	135.812175208609
48-5	京都府宇治市木幡平尾43-2	東宇治高等学校	34.92585548782408	135.81033484704633
48-6	京都府宇治市平尾台一丁目19-12	平尾台第２児童公園	34.926085297131436	135.8136815761544
48-7	京都府宇治市平尾台四丁目1-1	平尾台ポンプ場	34.92351250419318	135.81252213571616
48-8	京都府宇治市木幡平尾67-1	南山公園	34.92238437458208	135.80974889271826
48-9	京都府宇治市平尾台一丁目5-14	平尾台第１児童公園	34.92438091125632	135.81217472949646
48-10	京都府宇治市平尾台一丁目24-2	平尾台消防団器具庫	34.92861045056557	135.81411242233148
48-11	京都府宇治市平尾台二丁目14	平尾台第４児童公園	34.928767756945895	135.81596410307876
49-1	京都府宇治市宇治蔭山10-1	くすのき広場	34.891118409688474	135.79152154169174
49-2	京都府宇治市小倉町東山1-11	小倉東山第２遊園	34.8916505910266	135.7850156522428
49-3	京都府宇治市宇治蔭山55	蔭山公園	34.8901551134957	135.7905622706895
49-4	京都府宇治市宇治御廟25-18	御廟第２児童遊園	34.88926495114731	135.78839811549128
49-5	京都府宇治市宇治御廟1-33	御廟児童遊園	34.88906359832825	135.7901499243298
49-6	京都府宇治市小倉町東山34	共栄製茶株式会社	34.890292706164075	135.7848035403288
49-7	京都府宇治市小倉町中畑49	小倉中畑市営住宅（北側）	34.88985207408846	135.78543827342773
49-8	京都府宇治市小倉町中畑49	小倉中畑市営住宅（南側）	34.88939465391466	135.7854805078927
